,Closest City name,Closest Country code,Latitude,Longitude,Temperature,Wind speed,Humidity,Cloudiness
0,ponta delgada,pt,37.73,-25.67,18.0,6.2,82.0,20.0
1,avarua,ck,-21.21,-159.78,26.0,2.6,61.0,40.0
2,pangnirtung,ca,66.15,-65.71,-11.85,1.75,100.0,68.0
3,semirom,ir,31.42,51.57,6.38,1.45,26.0,0.0
5,kang,bw,-23.68,22.79,20.53,5.2,65.0,0.0
6,dalby,au,-27.18,151.27,24.0,4.6,31.0,0.0
7,hilo,us,19.73,-155.09,23.0,3.2,94.0,90.0
8,belushya guba,ru,69.71,60.05,-5.0,7.55,100.0,64.0
10,ontario,us,34.06,-117.65,17.0,0.55,37.0,1.0
11,lithakia,gr,37.72,20.83,17.0,7.7,88.0,75.0
12,afyonkarahisar,tr,38.75,30.67,2.43,1.22,82.0,88.0
13,hobyo,so,5.35,48.53,27.16,5.8,78.0,0.0
14,washington,us,47.5,-120.5,4.0,0.9,100.0,90.0
16,lagoa,pt,39.05,-27.98,19.51,9.42,100.0,56.0
17,belomorsk,ru,64.52,34.77,1.26,3.62,100.0,80.0
18,christchurch,nz,-43.53,172.63,13.0,4.6,66.0,0.0
19,kintampo,gh,8.06,-1.73,21.91,3.32,95.0,0.0
20,masunga,bw,-20.62,27.45,18.0,3.1,93.0,40.0
21,komsomolskiy,ru,43.98,46.7,9.38,3.55,100.0,48.0
23,moura,pt,38.14,-7.45,8.0,1.5,100.0,20.0
24,shenjiamen,cn,29.96,122.3,19.06,3.1,92.0,0.0
25,sabzevar,ir,36.21,57.68,9.66,1.57,76.0,12.0
26,sao joao da barra,br,-21.64,-41.05,22.68,3.2,100.0,20.0
27,farah,af,32.37,62.12,12.21,1.62,100.0,92.0
28,abapo,bo,-18.83,-63.47,15.81,0.67,78.0,8.0
29,yatou,cn,37.15,122.38,15.76,5.22,54.0,24.0
30,nador,ma,35.17,-2.93,18.0,4.1,52.0,0.0
31,bambous virieux,mu,-20.34,57.76,27.0,3.1,69.0,75.0
32,brownwood,us,31.71,-98.99,17.0,3.1,100.0,90.0
33,villazon,bo,-22.09,-65.59,5.91,1.57,94.0,92.0
34,beysehir,tr,37.68,31.72,4.13,1.22,100.0,32.0
35,kailua,us,21.4,-157.74,27.0,2.6,78.0,20.0
36,illoqqortoormiut,gl,38.53,-28.64,19.56,9.82,99.0,44.0
37,vila velha,br,-20.33,-40.29,21.0,1.0,100.0,75.0
38,severo-yeniseyskiy,ru,60.37,93.04,-15.22,1.5,59.0,56.0
39,corinth,us,33.15,-97.06,18.0,2.6,82.0,90.0
40,hengshui,cn,37.73,115.7,12.91,5.05,50.0,0.0
41,nyrob,ru,60.73,56.72,-3.67,4.65,90.0,92.0
42,ransang,ph,8.96,117.58,27.38,2.07,92.0,56.0
43,tarakan,id,3.3,117.63,30.08,1.0,86.0,64.0
44,oistins,bb,13.07,-59.53,27.0,8.2,83.0,40.0
45,varkaus,fi,62.33,27.87,1.0,1.5,100.0,90.0
46,forrest city,us,35.01,-90.79,10.0,1.5,93.0,1.0
47,zwedru,lr,6.07,-8.13,21.01,1.25,94.0,20.0
48,coxim,br,-18.51,-54.76,16.91,1.47,73.0,8.0
49,ust-kulom,ru,61.69,53.69,-0.12,3.05,85.0,92.0
50,waconia,us,44.85,-93.79,-1.0,2.02,100.0,1.0
51,mehamn,no,71.04,27.85,2.0,3.1,86.0,0.0
52,cehegin,es,38.09,-1.8,7.88,3.82,73.0,0.0
53,eureka,us,40.8,-124.16,16.0,7.2,93.0,90.0
55,pacifica,us,37.61,-122.49,14.0,1.5,87.0,75.0
56,atascadero,us,35.49,-120.67,13.0,0.92,76.0,1.0
57,champerico,gt,14.3,-91.92,24.03,0.6,100.0,0.0
58,brookhaven,us,31.58,-90.44,16.0,1.5,87.0,75.0
59,severnyy,ru,50.68,36.55,2.0,3.0,86.0,75.0
60,burnie,au,-41.07,145.92,15.28,7.97,92.0,0.0
61,charters towers,au,-20.1,146.27,26.56,4.0,53.0,92.0
64,chernyshevskiy,ru,63.01,112.47,-12.37,2.2,95.0,44.0
65,herat,af,34.35,62.2,12.0,5.7,37.0,20.0
66,kota kinabalu,my,5.97,116.07,29.0,3.1,83.0,75.0
67,lexington,us,37.99,-84.48,7.0,5.1,81.0,90.0
69,santa cruz,cr,10.26,-85.59,24.0,1.0,100.0,0.0
70,high level,ca,58.52,-117.14,-10.0,2.1,85.0,90.0
71,comodoro rivadavia,ar,-45.87,-67.5,18.0,6.7,39.0,0.0
72,chimoio,mz,-19.12,33.48,19.0,1.82,100.0,90.0
73,carcassonne,fr,43.22,2.35,8.0,7.7,75.0,75.0
74,uusikaupunki,fi,60.8,21.41,1.0,2.6,100.0,80.0
76,saskylakh,ru,71.92,114.08,-27.37,1.4,26.0,64.0
77,taltal,cl,-25.4,-70.48,12.56,0.25,94.0,32.0
78,filingue,ne,14.35,3.32,14.41,3.32,44.0,0.0
79,filadelfia,py,-22.35,-60.03,18.18,1.35,69.0,12.0
80,mujiayingzi,cn,42.12,118.78,0.18,5.17,62.0,0.0
81,mys shmidta,ru,52.98,49.71,4.0,5.0,100.0,90.0
82,richards bay,za,-28.78,32.04,24.68,6.35,79.0,12.0
83,oruro,bo,-17.98,-67.15,4.08,1.35,100.0,76.0
84,werda,bw,-25.27,23.28,24.13,6.47,45.0,0.0
85,vizinga,ru,61.07,50.1,1.03,2.6,88.0,88.0
86,akdepe,tm,42.06,59.38,5.0,2.1,60.0,0.0
87,uyuni,bo,-20.46,-66.83,5.76,1.3,96.0,80.0
88,anchorage,us,61.22,-149.9,-8.0,4.1,72.0,1.0
89,akropong,gh,5.97,-0.09,27.0,2.1,88.0,0.0
90,rikitea,pf,-23.12,-134.97,23.56,7.2,100.0,92.0
92,pisco,pe,-13.7,-76.22,17.0,3.1,93.0,40.0
93,saint-pierre,pm,46.77,-56.17,5.41,4.75,100.0,92.0
94,miyako,jp,39.64,141.95,12.08,5.72,97.0,36.0
95,fereydun kenar,ir,36.69,52.52,13.0,1.0,93.0,0.0
96,soldotna,us,60.49,-151.06,-8.0,1.02,92.0,1.0
97,lima,pe,-12.04,-77.03,13.08,0.92,77.0,12.0
98,verkhnevilyuysk,ru,63.45,120.32,-24.12,1.72,75.0,36.0
100,matara,lk,5.95,80.54,28.18,6.67,90.0,56.0
101,gasa,bt,27.9,89.73,-1.75,0.6,46.0,0.0
102,botou,cn,38.07,116.57,12.81,5.27,37.0,0.0
103,coihaique,cl,-45.58,-72.07,8.0,2.1,93.0,90.0
105,villamontes,bo,-21.25,-63.5,15.58,1.6,64.0,64.0
108,tautira,pf,-17.73,-149.15,27.0,3.1,65.0,20.0
109,suicheng,cn,33.9,117.93,17.71,2.6,58.0,92.0
111,ngunguru,nz,-35.62,174.5,16.31,3.2,98.0,24.0
112,nizhneyansk,ru,55.64,51.82,1.0,5.0,100.0,90.0
113,volksrust,za,-27.37,29.88,20.41,1.97,60.0,0.0
114,rundu,na,-17.93,19.77,21.41,2.82,82.0,24.0
115,birjand,ir,32.87,59.22,6.0,3.1,60.0,0.0
117,pokhara,np,28.23,83.98,19.68,1.22,51.0,0.0
118,ketchikan,us,55.34,-131.65,6.0,3.1,81.0,90.0
119,roald,no,62.58,6.13,4.0,4.6,100.0,88.0
120,sur,om,22.57,59.53,27.31,3.02,94.0,0.0
121,laguna,br,-28.48,-48.78,18.81,8.07,98.0,0.0
122,aiquile,bo,-18.2,-65.18,5.08,0.9,85.0,32.0
123,dembi dolo,et,8.53,34.8,22.91,1.6,76.0,24.0
125,corsicana,us,32.1,-96.47,16.0,2.6,93.0,90.0
126,geraldton,au,-28.77,114.6,23.0,8.7,69.0,75.0
127,teya,ru,60.38,92.63,-15.45,1.52,60.0,76.0
129,louis trichardt,za,-23.04,29.9,20.38,0.57,91.0,100.0
130,kumluca,tr,36.37,30.29,3.76,0.72,78.0,76.0
131,zhumadian,cn,32.98,114.03,18.31,3.62,50.0,76.0
132,chipinge,zw,-20.19,32.62,21.03,1.52,100.0,92.0
133,juneau,us,58.3,-134.42,-1.0,1.5,79.0,90.0
134,butaritari,ki,3.07,172.79,28.93,4.82,100.0,76.0
135,platanos,gr,37.67,21.62,17.0,1.6,72.0,40.0
136,kommunisticheskiy,ru,61.68,64.48,-5.42,2.4,88.0,92.0
137,bumba,cd,2.18,22.47,23.41,1.57,94.0,92.0
138,labuan,my,5.33,115.2,28.0,3.1,94.0,75.0
139,sentyabrskiy,ru,60.75,72.86,-9.05,2.27,86.0,80.0
140,belmonte,br,-15.86,-38.88,24.0,4.6,100.0,90.0
141,guinayangan,ph,13.9,122.45,29.43,4.77,82.0,36.0
142,ballina,au,-28.87,153.57,20.76,4.6,100.0,32.0
143,djibo,bf,14.1,-1.63,13.51,3.85,37.0,8.0
144,dafeng,cn,23.45,108.59,23.08,1.67,82.0,92.0
147,upernavik,gl,72.79,-56.15,-6.75,8.25,100.0,68.0
148,bongaree,au,-27.08,153.16,23.0,5.7,46.0,20.0
149,afrikanda,ru,67.44,32.78,0.38,1.35,98.0,92.0
150,muros,es,42.78,-9.06,9.0,2.1,100.0,40.0
151,synya,ru,65.37,58.04,-4.47,1.97,85.0,92.0
152,coquimbo,cl,-29.95,-71.34,13.0,1.67,87.0,0.0
153,altamont,us,42.21,-121.74,6.0,9.8,75.0,20.0
154,namibe,ao,-15.2,12.15,20.51,1.92,100.0,0.0
157,kuryk,kz,43.2,51.65,7.58,3.25,100.0,0.0
158,azle,us,32.9,-97.55,18.0,1.5,72.0,75.0
159,zabol,ir,31.03,61.5,16.0,7.2,36.0,0.0
160,nangong,cn,37.36,115.37,14.53,5.5,40.0,8.0
161,kutum,sd,14.2,24.67,16.66,2.5,36.0,0.0
163,zhanaozen,kz,43.3,52.8,7.18,2.17,87.0,32.0
164,kalamansig,ph,6.55,124.05,25.88,1.27,91.0,68.0
165,kearney,us,40.7,-99.08,3.0,3.6,86.0,1.0
166,trairi,br,-3.28,-39.27,26.56,7.2,100.0,0.0
167,bardiyah,ly,31.76,25.09,17.18,7.77,100.0,0.0
168,cervo,es,43.67,-7.41,13.38,5.45,100.0,44.0
169,comarapa,bo,-17.9,-64.48,9.81,0.47,74.0,12.0
171,honningsvag,no,70.98,25.97,2.0,3.1,80.0,75.0
172,muhororo,ug,0.94,30.76,22.31,0.25,100.0,76.0
174,pareora,nz,-44.4,171.22,12.83,2.8,82.0,0.0
175,san cristobal,ec,-0.9,-89.62,20.38,5.12,100.0,0.0
176,dunedin,nz,-45.87,170.5,12.51,2.27,71.0,20.0
177,nantucket,us,41.28,-70.1,9.0,1.5,93.0,90.0
178,severomorsk,ru,69.07,33.42,1.0,3.0,93.0,75.0
179,almaznyy,ru,48.04,40.05,9.76,2.92,100.0,64.0
180,fort wellington,gy,6.4,-57.6,27.16,4.95,99.0,88.0
181,lerwick,gb,60.15,-1.15,3.0,2.6,100.0,56.0
182,hermanus,za,-34.42,19.23,16.03,1.45,76.0,76.0
183,greenwood,us,39.61,-86.11,4.0,2.6,100.0,90.0
184,challapata,bo,-18.9,-66.77,4.91,1.4,96.0,92.0
185,mountain home,us,43.13,-115.69,7.0,1.5,93.0,90.0
187,nieuw amsterdam,sr,5.88,-55.08,25.0,2.1,88.0,0.0
188,reconquista,ar,-29.15,-59.65,16.91,2.35,69.0,0.0
189,abu zabad,sd,12.35,29.25,23.08,1.35,72.0,0.0
190,san pedro de ycuamandiyu,py,-24.09,-57.08,15.91,2.17,58.0,0.0
191,leh,in,34.17,77.58,-11.72,0.77,82.0,44.0
192,duobao,cn,30.67,112.69,12.78,4.0,100.0,92.0
194,joroan,ph,13.49,123.62,27.88,3.07,87.0,56.0
195,mabaruma,gy,8.2,-59.78,26.18,1.95,91.0,80.0
196,dana point,us,33.47,-117.7,17.0,1.37,88.0,1.0
197,asau,tv,-8.52,179.13,31.0,5.1,62.0,40.0
198,monzon,es,41.91,0.19,8.0,11.8,49.0,0.0
199,digby,ca,44.62,-65.77,1.18,4.0,100.0,24.0
200,armacao de pera,pt,37.1,-8.36,12.0,1.0,71.0,0.0
201,atuona,pf,-9.8,-139.03,27.06,6.3,100.0,0.0
202,porto novo,cv,17.02,-25.06,25.0,4.1,83.0,75.0
203,bathsheba,bb,13.22,-59.52,27.0,8.2,83.0,40.0
205,osuna,es,37.24,-5.11,7.0,2.1,81.0,0.0
206,punta arenas,cl,-53.15,-70.92,6.0,10.8,75.0,20.0
207,vaitape,pf,-16.52,-151.75,26.21,3.92,100.0,44.0
209,manyana,bw,-23.4,21.72,20.38,4.9,64.0,0.0
211,central point,us,42.38,-122.92,13.0,8.2,54.0,90.0
212,artyom,az,40.47,50.33,14.0,3.1,93.0,90.0
213,igrim,ru,63.19,64.42,-4.5,2.52,87.0,92.0
214,pionerskiy,ru,54.95,20.23,2.0,2.0,93.0,40.0
215,save,bj,8.04,2.49,23.68,2.57,92.0,0.0
216,kardamaina,gr,36.78,27.14,18.0,8.2,68.0,40.0
217,snezhnogorsk,ru,69.19,33.25,1.0,3.0,100.0,75.0
218,dixon,us,38.45,-121.82,13.0,2.6,76.0,75.0
219,neftcala,az,39.37,49.25,14.63,1.85,100.0,92.0
220,meulaboh,id,4.14,96.13,29.63,3.15,96.0,0.0
221,toamasina,mg,-18.17,49.38,25.0,1.0,94.0,75.0
222,fairbanks,us,64.84,-147.72,-3.0,5.7,86.0,90.0
223,svetlogorsk,ru,54.94,20.15,2.0,2.0,93.0,40.0
224,sinegorye,ru,62.08,150.48,-22.47,1.05,72.0,80.0
225,izvoarele,ro,45.03,25.27,6.33,1.95,92.0,88.0
226,hambantota,lk,6.12,81.12,29.46,7.57,95.0,24.0
227,chokurdakh,ru,70.63,147.92,-20.1,1.45,67.0,64.0
228,broome,au,-17.97,122.23,30.0,6.2,62.0,0.0
229,nyurba,ru,63.28,118.33,-21.05,1.75,57.0,56.0
230,alta,no,69.97,23.27,-5.0,2.1,92.0,0.0
231,kaitangata,nz,-46.23,169.75,13.71,4.15,59.0,0.0
233,pierre,us,44.37,-100.35,4.0,4.6,80.0,1.0
234,strezhevoy,ru,60.73,77.59,-16.0,3.0,91.0,75.0
236,dengfeng,cn,34.46,113.03,16.81,5.42,45.0,20.0
237,asosa,et,10.07,34.53,25.66,1.75,48.0,32.0
238,antalaha,mg,-14.9,50.28,27.43,1.67,76.0,32.0
239,lormont,fr,44.88,-0.52,6.0,2.1,93.0,0.0
241,acarau,br,-2.89,-40.12,24.13,4.37,91.0,64.0
242,monforte de lemos,es,42.52,-7.51,7.91,1.35,97.0,76.0
243,bondo,cd,3.81,23.69,20.66,1.17,100.0,92.0
244,waipawa,nz,-41.41,175.52,13.0,7.7,62.0,80.0
245,tawau,my,4.25,117.89,31.0,2.6,74.0,75.0
246,cam ranh,vn,11.92,109.16,27.68,3.92,90.0,12.0
247,san patricio,mx,19.22,-104.7,22.28,1.17,100.0,0.0
248,date,jp,42.47,140.87,5.91,1.9,100.0,92.0
250,egvekinot,ru,66.32,-179.17,-22.32,1.0,62.0,36.0
251,gambela,et,8.25,34.58,22.91,1.6,76.0,24.0
252,jacqueville,ci,5.21,-4.41,25.0,1.0,88.0,20.0
253,haapiti,pf,-17.57,-149.87,27.0,3.1,65.0,20.0
254,ayame,ci,5.61,-3.16,23.53,1.72,100.0,0.0
255,springfield,us,37.22,-93.3,9.0,2.25,81.0,90.0
256,burdur,tr,37.72,30.29,14.0,1.5,86.0,40.0
257,bantogon,ph,6.53,124.03,25.88,1.27,91.0,68.0
258,wattegama,lk,6.8,81.48,30.68,3.25,82.0,20.0
259,lishu,cn,43.3,124.33,2.66,5.07,67.0,0.0
263,xinzhou,cn,38.41,112.73,3.38,5.1,61.0,0.0
264,mackay,au,-21.15,149.2,25.0,7.2,69.0,90.0
265,korla,cn,41.76,86.15,6.06,2.05,51.0,0.0
266,pacific grove,us,36.62,-121.92,13.0,0.92,81.0,40.0
267,nueva concepcion,gt,14.2,-91.3,18.51,0.95,84.0,0.0
268,zonguldak,tr,41.25,31.83,11.38,2.07,80.0,12.0
269,kahului,us,20.89,-156.47,25.0,3.1,73.0,40.0
270,henderson,us,36.04,-114.98,16.0,1.0,37.0,1.0
271,alegrete,br,-29.78,-55.79,13.08,1.92,69.0,0.0
272,petrozavodsk,ru,61.78,34.35,1.0,2.0,94.0,24.0
273,mhlume,sz,-26.03,31.85,18.0,2.6,100.0,76.0
274,christiana,za,-27.91,25.16,24.83,9.55,44.0,44.0
276,hobo,ph,13.51,123.18,29.46,5.57,82.0,44.0
277,maniitsoq,gl,65.42,-52.9,-5.95,3.97,100.0,68.0
278,inirida,co,3.87,-67.92,23.83,0.82,99.0,92.0
279,natchez,us,31.56,-91.4,17.0,2.6,88.0,90.0
280,north las vegas,us,36.2,-115.12,16.0,1.0,35.0,1.0
281,ketou,bj,7.36,2.6,23.66,1.95,95.0,0.0
282,puerto carreno,co,6.19,-67.49,21.58,1.17,91.0,68.0
283,mumford,gh,5.26,-0.76,25.51,1.72,93.0,76.0
285,jamestown,sh,-15.94,-5.72,19.58,8.6,100.0,92.0
286,cape coast,gh,5.11,-1.25,22.93,1.22,94.0,44.0
288,hay river,ca,60.82,-115.8,-8.0,2.6,92.0,90.0
289,thaba-tseka,ls,-29.52,28.61,17.21,1.47,61.0,20.0
290,port hedland,au,-20.32,118.57,29.0,9.8,54.0,0.0
291,vuktyl,ru,63.86,57.31,-2.32,2.97,81.0,88.0
292,shahrud,ir,36.42,54.98,7.08,1.6,95.0,0.0
293,mangrol,in,21.12,70.12,30.66,2.35,55.0,0.0
294,marshall,us,32.54,-94.37,15.0,1.85,87.0,90.0
295,otawara,jp,36.87,140.03,14.0,5.7,54.0,40.0
296,brokopondo,sr,5.07,-54.97,25.0,2.1,88.0,0.0
297,corum,tr,40.55,34.95,4.0,0.95,80.0,0.0
298,kogon,uz,39.72,64.55,10.0,3.1,49.0,0.0
299,farafangana,mg,-22.82,47.83,22.83,4.0,100.0,92.0
300,nampa,us,43.54,-116.56,7.0,1.22,93.0,36.0
301,russellville,us,35.28,-93.13,10.0,1.67,87.0,20.0
303,xinye,cn,32.52,112.35,18.38,3.37,64.0,68.0
304,jining,cn,35.41,116.58,17.46,6.35,32.0,0.0
305,naryan-mar,ru,67.67,53.09,-2.0,6.77,90.0,76.0
306,barrow,us,71.29,-156.79,1.0,7.2,86.0,75.0
308,aykhal,ru,66.0,111.5,-17.15,1.52,68.0,76.0
309,stephenville,us,32.22,-98.2,18.0,4.27,77.0,90.0
310,srednekolymsk,ru,67.45,153.68,-22.07,1.9,79.0,76.0
312,chuy,uy,-33.7,-53.46,10.76,1.4,96.0,0.0
313,leganes,es,40.33,-3.76,11.0,2.1,76.0,0.0
314,adra,es,36.75,-3.02,13.0,1.0,71.0,0.0
315,gazojak,tm,41.19,61.4,8.81,2.05,69.0,32.0
316,yulara,au,-25.24,130.99,33.0,4.6,31.0,0.0
317,mahebourg,mu,-20.41,57.7,27.0,3.1,69.0,75.0
318,dongying,cn,37.46,118.49,15.43,4.72,31.0,44.0
319,kargasok,ru,59.06,80.86,-10.82,1.52,86.0,88.0
320,balilihan,ph,9.76,123.97,32.0,4.1,62.0,40.0
321,belyy yar,ru,53.6,91.39,-8.0,2.0,78.0,40.0
322,esfarayen,ir,37.08,57.51,8.0,1.37,93.0,90.0
323,kautokeino,no,69.01,23.04,-3.45,1.07,94.0,80.0
324,llanes,es,43.42,-4.75,4.43,1.3,97.0,48.0
325,nikolskoye,ru,59.68,30.67,3.0,3.0,86.0,40.0
327,alanya,tr,36.54,32.0,14.83,1.37,100.0,76.0
329,vila franca do campo,pt,37.72,-25.43,18.0,6.2,82.0,20.0
330,dudinka,ru,69.41,86.18,-31.75,1.5,39.0,32.0
331,zaraza,ve,9.35,-65.32,25.33,1.67,80.0,0.0
332,asuncion,py,-25.3,-57.64,18.0,1.0,68.0,0.0
333,la asuncion,ve,11.03,-63.86,27.33,6.52,100.0,0.0
334,hutchinson,us,38.06,-97.93,7.0,1.3,100.0,90.0
336,rockland,us,42.13,-70.92,4.0,1.5,86.0,20.0
337,puerto el triunfo,sv,13.28,-88.55,28.0,4.1,61.0,0.0
338,rio gallegos,ar,-51.62,-69.22,6.0,3.6,70.0,0.0
339,harper,lr,4.38,-7.72,25.83,3.75,100.0,80.0
340,commerce,us,34.0,-118.16,17.0,2.1,77.0,1.0
341,tongliao,cn,43.61,122.27,2.21,7.0,45.0,0.0
342,saint joseph,us,39.77,-94.85,3.0,1.27,100.0,90.0
343,po,bf,11.17,-1.15,16.78,3.15,45.0,8.0
344,berlevag,no,70.86,29.09,-3.0,3.1,86.0,0.0
345,baherden,tm,38.44,57.43,11.33,1.6,95.0,64.0
346,saint-joseph,re,-21.37,55.62,24.0,0.5,88.0,100.0
347,paradise,us,36.1,-115.15,16.0,1.0,31.0,75.0
348,matagalpa,ni,12.93,-85.92,21.41,1.0,89.0,92.0
349,changli,cn,39.7,119.15,10.93,6.47,94.0,0.0
350,kalmunai,lk,7.42,81.82,29.91,1.85,78.0,56.0
351,saint-leu,re,-21.15,55.28,24.0,0.5,88.0,92.0
353,longyearbyen,sj,78.22,15.64,0.0,2.6,100.0,75.0
354,luangwa,zm,-15.62,30.42,23.31,3.02,96.0,92.0
355,palaia fokaia,gr,37.72,23.95,17.0,3.6,77.0,40.0
357,xai-xai,mz,-25.05,33.64,23.46,6.45,96.0,44.0
358,chicama,pe,-7.84,-79.15,17.0,2.6,88.0,90.0
360,mingshui,cn,36.72,117.5,14.71,6.02,22.0,24.0
361,moerai,pf,-22.43,-151.33,22.78,0.72,100.0,0.0
362,birao,cf,10.28,22.79,22.81,3.32,50.0,0.0
363,pangai,to,-19.8,-174.35,27.0,4.1,83.0,75.0
364,rawson,ar,-43.3,-65.1,11.51,4.05,93.0,44.0
365,adrar,dz,27.87,-0.29,10.0,2.1,43.0,0.0
366,miri,my,4.41,114.01,28.0,4.1,78.0,75.0
367,clyde river,ca,70.47,-68.59,-18.0,6.7,70.0,1.0
368,paracuru,br,-3.41,-39.03,26.0,4.6,78.0,75.0
369,narsaq,gl,60.92,-46.05,-1.0,1.5,80.0,88.0
370,leningradskiy,ru,69.38,178.42,-13.22,3.72,100.0,8.0
371,northam,au,-31.67,116.67,28.0,8.7,48.0,0.0
372,redmond,us,47.67,-122.12,10.0,2.87,100.0,90.0
373,rancho palos verdes,us,33.74,-118.39,17.0,3.6,77.0,90.0
374,fernley,us,39.61,-119.25,9.0,1.5,45.0,20.0
377,borovoy,ru,55.43,86.08,-7.0,3.0,92.0,90.0
378,sembakung,id,3.82,117.25,30.83,1.15,70.0,44.0
379,evora,pt,38.57,-7.9,8.0,1.5,100.0,20.0
380,piacabucu,br,-10.41,-36.43,23.06,6.62,89.0,0.0
382,safranbolu,tr,41.25,32.69,7.33,0.8,81.0,24.0
383,shakawe,bw,-18.37,21.85,19.81,2.87,95.0,92.0
384,ejura,gh,7.39,-1.36,22.31,2.82,94.0,0.0
385,caravelas,br,-17.71,-39.25,25.01,6.25,100.0,92.0
387,fortuna,us,40.6,-124.16,16.0,7.2,93.0,90.0
388,natchitoches,us,31.76,-93.09,18.0,2.6,93.0,90.0
389,arcata,us,40.87,-124.08,16.0,7.2,93.0,90.0
390,emerald,au,-23.53,148.17,28.66,6.3,32.0,80.0
391,ribeira grande,pt,38.52,-28.7,19.56,9.82,99.0,44.0
394,elko,us,40.83,-115.76,2.0,2.8,64.0,1.0
395,bria,cf,6.54,21.99,21.71,2.05,92.0,12.0
396,teguldet,ru,57.31,88.17,-8.85,1.57,78.0,80.0
397,butembo,cd,0.15,29.28,19.93,1.27,93.0,20.0
398,cidreira,br,-30.18,-50.21,14.13,2.05,95.0,0.0
399,texarkana,us,33.43,-94.05,11.0,1.5,100.0,90.0
401,anaco,ve,9.44,-64.47,25.01,5.4,70.0,0.0
402,iquique,cl,-20.22,-70.14,18.0,0.6,77.0,75.0
403,nicoya,cr,10.15,-85.45,24.0,1.0,100.0,0.0
404,kangaatsiaq,gl,68.31,-53.46,-3.2,1.82,100.0,36.0
405,porterville,us,36.07,-119.02,11.0,2.6,87.0,1.0
406,castro,cl,-42.47,-73.77,11.71,1.5,96.0,68.0
407,yeppoon,au,-23.13,150.73,25.0,6.7,50.0,40.0
408,demirci,tr,39.05,28.66,5.43,1.27,69.0,92.0
409,kenai,us,60.55,-151.26,-8.0,2.6,85.0,1.0
410,maracaju,br,-21.61,-55.17,14.53,1.97,74.0,0.0
411,vestmanna,fo,62.16,-7.17,2.0,6.7,93.0,92.0
412,banda aceh,id,5.56,95.32,28.38,1.3,86.0,44.0
413,albany,au,-35.02,117.89,18.81,7.12,73.0,24.0
414,limbang,my,4.75,115.0,28.0,3.1,83.0,75.0
415,canillo,ad,42.57,1.6,-4.62,2.52,62.0,0.0
417,kuusamo,fi,65.97,29.18,-1.0,0.85,100.0,90.0
419,vanimo,pg,-2.67,141.3,29.38,3.42,100.0,20.0
421,isangel,vu,-19.55,169.27,24.46,8.6,100.0,24.0
422,totness,sr,5.88,-56.32,26.58,6.2,100.0,0.0
423,shelburne,ca,44.08,-80.2,2.0,1.45,95.0,90.0
424,conway,us,35.09,-92.44,13.0,1.07,100.0,90.0
425,barcelos,br,-0.97,-62.92,24.71,2.12,93.0,36.0
426,mehriz,ir,31.59,54.43,13.0,2.02,28.0,0.0
427,altea,es,38.6,-0.05,17.0,11.3,42.0,0.0
428,broken hill,au,-31.95,141.43,30.91,4.5,23.0,88.0
430,sarangani,ph,5.4,125.46,27.88,2.2,100.0,32.0
431,abashiri,jp,44.02,144.27,8.0,4.1,39.0,20.0
432,puerto ayora,ec,-0.74,-90.35,18.81,4.07,100.0,8.0
433,chanute,us,37.68,-95.46,11.0,1.3,81.0,90.0
434,hobart,au,-42.88,147.33,25.0,6.7,29.0,20.0
435,la rioja,ar,-29.41,-66.85,21.96,0.25,44.0,20.0
436,batticaloa,lk,7.71,81.69,29.93,5.1,89.0,24.0
437,presidencia roque saenz pena,ar,-26.79,-60.44,17.76,2.57,64.0,0.0
438,taolanaro,mg,-25.02,46.97,22.0,3.1,78.0,75.0
439,maceio,br,-9.67,-35.74,23.0,3.1,94.0,0.0
440,vardo,no,70.37,31.11,0.0,3.1,100.0,75.0
442,damghan,ir,36.17,54.35,9.58,1.85,86.0,0.0
443,sabang,id,5.89,95.32,27.76,0.9,100.0,8.0
444,liverpool,ca,44.03,-64.72,2.91,2.15,100.0,8.0
446,menomonie,us,44.88,-91.92,-4.0,1.3,92.0,1.0
447,katsuura,jp,35.13,140.3,15.0,1.5,51.0,40.0
448,hangu,cn,39.25,117.79,12.0,10.0,13.0,0.0
449,shache,cn,38.42,77.24,12.33,2.02,50.0,0.0
450,kaitong,cn,44.81,123.15,0.18,8.22,47.0,0.0
451,dobrun,ro,44.27,24.22,9.0,4.1,93.0,0.0
452,phalaborwa,za,-23.94,31.14,23.68,3.27,100.0,12.0
453,clarksville,us,36.53,-87.36,12.0,2.1,81.0,75.0
454,vao,nc,-22.67,167.48,22.28,7.07,100.0,80.0
455,tabou,ci,4.42,-7.35,25.46,2.82,100.0,44.0
456,ahipara,nz,-35.17,173.17,16.56,4.45,75.0,20.0
457,ust-nera,ru,64.57,143.2,-32.72,0.92,37.0,32.0
458,avera,pf,33.23,-82.6,11.0,1.5,87.0,90.0
459,weinan,cn,34.5,109.51,12.08,1.85,84.0,0.0
460,zhigansk,ru,66.77,123.37,-25.47,3.07,64.0,24.0
461,balabac,ph,7.99,117.06,25.33,2.75,100.0,76.0
462,nivala,fi,63.92,25.0,-0.67,1.67,93.0,76.0
464,stuttgart,us,34.5,-91.55,12.0,3.1,87.0,1.0
465,iskateley,ru,67.68,53.15,-2.12,6.7,91.0,64.0
466,kritsa,gr,35.17,25.65,19.0,5.1,72.0,40.0
467,kapaa,us,22.08,-159.32,26.0,5.1,69.0,20.0
468,oulu,fi,65.0,25.5,0.0,1.5,98.0,64.0
469,maryborough,au,-25.53,152.7,24.21,2.8,41.0,0.0
470,am timan,td,11.03,20.28,24.43,2.47,43.0,0.0
471,tchaourou,bj,8.89,2.6,19.51,1.95,90.0,0.0
472,half moon bay,us,37.46,-122.43,14.0,1.5,87.0,75.0
473,san jose,gt,16.98,-89.9,21.01,1.85,100.0,100.0
474,bloemfontein,za,-29.12,26.21,20.0,3.1,49.0,75.0
475,provideniya,ru,64.38,-173.3,-3.0,5.0,68.0,0.0
476,mataura,pf,60.29,25.04,1.0,3.6,100.0,75.0
477,chiredzi,zw,-21.05,31.67,23.38,2.2,88.0,68.0
478,bend,us,44.06,-121.32,7.0,3.1,70.0,1.0
479,salalah,om,17.02,54.09,25.0,4.32,50.0,0.0
480,saint john,ca,45.27,-66.07,-3.0,4.75,86.0,90.0
481,darnah,ly,32.77,22.64,18.88,6.92,100.0,0.0
482,esperance,au,-33.87,121.9,22.78,5.8,69.0,8.0
483,marrakesh,ma,31.63,-8.01,9.0,1.22,24.0,0.0
484,rosetta,eg,31.4,30.42,15.0,0.5,87.0,80.0
485,nokaneng,bw,-19.67,22.27,21.21,2.87,94.0,0.0
487,odienne,ci,9.51,-7.57,18.53,0.7,78.0,0.0
488,amalapuram,in,16.58,82.02,29.13,8.9,74.0,76.0
489,takoradi,gh,4.88,-1.76,27.03,2.37,100.0,24.0
490,ravar,ir,31.27,56.81,14.63,2.6,40.0,0.0
491,bowen,au,-20.02,148.23,25.0,7.7,69.0,75.0
492,bluff,nz,-46.6,168.33,11.91,3.62,99.0,0.0
493,pevek,ru,69.7,170.31,-16.7,2.05,100.0,48.0
494,kavieng,pg,-2.57,150.8,29.91,3.17,100.0,0.0
495,manado,id,1.49,124.85,31.0,2.1,62.0,20.0
496,havoysund,no,71.0,24.66,2.0,1.52,86.0,20.0
497,dikson,ru,73.51,80.55,-13.62,6.0,100.0,64.0
498,talnakh,ru,69.49,88.4,-29.12,1.45,100.0,36.0
499,trincomalee,lk,8.57,81.23,23.96,5.1,100.0,88.0
